[{"_id":"613a5d9295086f036512e89b","name":"ALDI Durand Ave","type":"GS","address":"6925 Durand Ave, Racine, WI 53406","phoneNo":"(262)955-2534","freshMeats":true,"freshVeggies":true,"dairy":true,"poultry":true,"bakery":true,"location":{"latitude":42.696906,"longitude":-87.816377}},{"_id":"613a5f1595086f036512e89d","name":"Christiano Supermarket","type":"CS","address":"2054 Kearney Ave, Racine, WI 53403","phoneNo":"(262)633-4977","freshMeats":false,"freshVeggies":false,"dairy":true,"poultry":true,"bakery":true,"location":{"latitude":42.7047498,"longitude":-87.8063847}},{"_id":"613a5fa995086f036512e89e","name":"Food Distribution Center - Harvest Outreach, Inc.","type":"FB","address":"2000 De Koven Ave, Racine, WI 53403","phoneNo":"(262)632-6288","freshMeats":false,"freshVeggies":true,"dairy":false,"poultry":true,"bakery":true,"location":{"latitude":42.7090866,"longitude":-87.8029455}},{"_id":"613a5ea795086f036512e89c","name":"Pick 'N Save Green Bay Rd at Hwy 11","type":"GS","address":"2820 S Green Bay Rd, Mt Pleasant, WI 53406","phoneNo":"(262)554-9630","freshMeats":true,"freshVeggies":true,"dairy":true,"poultry":true,"bakery":true,"location":{"latitude":42.6988813,"longitude":-87.8565125}},{"_id":"613a5d4295086f036512e89a","name":"Piggly Wiggly Durand Ave","type":"GS","address":"4011 Durand Ave, Racine, WI 53405","phoneNo":"(262)554-8681","freshMeats":true,"freshVeggies":true,"dairy":true,"poultry":true,"bakery":true,"location":{"latitude":42.6967819,"longitude":-87.82743}},{"_id":"613a5cce95086f036512e899","name":"Save A Lot","type":"CS","address":"3701 Durand Ave, Racine, WI 53405","phoneNo":"(262)598-0693","freshMeats":true,"freshVeggies":true,"dairy":true,"poultry":true,"bakery":true,"location":{"latitude":42.6958751,"longitude":-87.8227568}},{"_id":"613a607695086f036512e8a0","name":"Super Mercado Jimenez","type":"GS","address":"2210 16th St, Racine, WI 53405","phoneNo":"(262)634-6840","freshMeats":true,"freshVeggies":true,"dairy":false,"poultry":true,"bakery":true,"location":{"latitude":42.7125157,"longitude":-87.8058534}},{"_id":"613a601495086f036512e89f","name":"Westown Foods.","type":"CS","address":"3326 16th St, Racine, WI 53405","phoneNo":"(262)633-2655","freshMeats":false,"freshVeggies":true,"dairy":false,"poultry":true,"bakery":true,"location":{"latitude":42.7124629,"longitude":-87.8189098}}]